date,x,y,z,vx,vy,vz,angle_deg,insight,yaw_deg,pitch_deg,roll_deg
2025-03-05T19:00:38,-5523416.258,4088832.865,76837.980,661.183061,732.971002,7552.612431,58.7747,[False],nan,nan,nan
2025-03-05T19:00:48,-5516464.972,4095911.041,152357.815,729.060490,682.649309,7551.199400,58.8260,[False],nan,nan,nan
2025-03-05T19:00:58,-5508835.337,4102485.564,227858.864,796.851281,632.241442,7548.855225,58.8753,[False],nan,nan,nan
2025-03-05T19:01:08,-5500528.263,4108555.603,303331.816,864.547007,581.753657,7545.580116,58.9224,[False],nan,nan,nan
2025-03-05T19:01:18,-5491544.742,4114120.392,378767.364,932.139251,531.192221,7541.374402,58.9674,[False],nan,nan,nan
2025-03-05T19:01:28,-5481885.851,4119179.223,454156.204,999.619610,480.563412,7536.238530,59.0102,[False],nan,nan,nan
2025-03-05T19:01:38,-5471552.751,4123731.456,529489.036,1066.979693,429.873516,7530.173068,59.0509,[False],nan,nan,nan
2025-03-05T19:01:48,-5460546.686,4127776.511,604756.569,1134.211125,379.128831,7523.178701,59.0894,[False],nan,nan,nan
2025-03-05T19:01:58,-5448868.985,4131313.871,679949.516,1201.305552,328.335660,7515.256235,59.1257,[False],nan,nan,nan
2025-03-05T19:02:08,-5436521.060,4134343.084,755058.603,1268.254636,277.500312,7506.406590,59.1599,[False],nan,nan,nan
2025-03-05T19:02:18,-5423504.405,4136863.758,830074.561,1335.050062,226.629100,7496.630807,59.1918,[False],nan,nan,nan
2025-03-05T19:02:28,-5409820.598,4138875.567,904988.136,1401.683534,175.728338,7485.930038,59.2214,[False],nan,nan,nan
2025-03-05T19:02:38,-5395471.301,4140378.247,979790.083,1468.146777,124.804343,7474.305550,59.2489,[False],nan,nan,nan
2025-03-05T19:02:48,-5380458.258,4141371.598,1054471.172,1534.431536,73.863432,7461.758721,59.2741,[False],nan,nan,nan
2025-03-05T19:02:58,-5364783.293,4141855.481,1129022.188,1600.529574,22.911923,7448.291043,59.2971,[False],nan,nan,nan
2025-03-05T19:03:08,-5348448.316,4141829.822,1203433.929,1666.432670,-28.043864,7433.904121,59.3177,[False],nan,nan,nan
2025-03-05T19:03:18,-5331455.317,4141294.610,1277697.212,1732.132622,-78.997607,7418.599671,59.3362,[False],nan,nan,nan
2025-03-05T19:03:28,-5313806.368,4140249.898,1351802.870,1797.621247,-129.942980,7402.379529,59.3523,[False],nan,nan,nan
2025-03-05T19:03:38,-5295503.623,4138695.799,1425741.756,1862.890380,-180.873654,7385.245645,59.3661,[False],nan,nan,nan
2025-03-05T19:03:48,-5276549.319,4136632.495,1499504.744,1927.931880,-231.783297,7367.200090,59.3777,[False],nan,nan,nan
2025-03-05T19:03:58,-5256945.772,4134060.225,1573082.727,1992.737629,-282.665575,7348.245052,59.3869,[False],nan,nan,nan
2025-03-05T19:04:08,-5236695.379,4130979.295,1646466.621,2057.299536,-333.514152,7328.382842,59.3939,[False],nan,nan,nan
2025-03-05T19:04:18,-5215800.621,4127390.075,1719647.368,2121.609540,-384.322690,7307.615889,59.3985,[False],nan,nan,nan
2025-03-05T19:04:28,-5194264.055,4123292.996,1792615.932,2185.659608,-435.084855,7285.946747,59.4008,[False],nan,nan,nan
2025-03-05T19:04:38,-5172088.322,4118688.554,1865363.304,2249.441743,-485.794318,7263.378090,59.4008,[False],nan,nan,nan
2025-03-05T19:04:48,-5149276.140,4113577.307,1937880.504,2312.947983,-536.444753,7239.912715,59.3984,[False],nan,nan,nan
2025-03-05T19:04:58,-5125830.308,4107959.877,2010158.579,2376.170406,-587.029846,7215.553542,59.3937,[False],nan,nan,nan
2025-03-05T19:05:08,-5101753.704,4101836.948,2082188.606,2439.101134,-637.543294,7190.303609,59.3867,[False],nan,nan,nan
2025-03-05T19:05:18,-5077049.284,4095209.270,2153961.693,2501.732336,-687.978809,7164.166072,59.3773,[False],nan,nan,nan
2025-03-05T19:05:28,-5051720.082,4088077.653,2225468.980,2564.056228,-738.330117,7137.144199,59.3656,[False],nan,nan,nan
2025-03-05T19:05:38,-5025769.209,4080442.970,2296701.640,2626.065072,-788.590965,7109.241364,59.3515,[False],nan,nan,nan
2025-03-05T19:05:48,-4999199.856,4072306.156,2367650.882,2687.751180,-838.755114,7080.461049,59.3351,[False],nan,nan,nan
2025-03-05T19:05:58,-4972015.287,4063668.210,2438307.948,2749.106906,-888.816341,7050.806835,59.3164,[False],nan,nan,nan
2025-03-05T19:06:08,-4944218.844,4054530.193,2508664.118,2810.124647,-938.768441,7020.282406,59.2953,[False],nan,nan,nan
2025-03-05T19:06:18,-4915813.946,4044893.226,2578710.708,2870.796841,-988.605219,6988.891551,59.2718,[False],nan,nan,nan
2025-03-05T19:06:28,-4886804.085,4034758.494,2648439.074,2931.115965,-1038.320499,6956.638161,59.2460,[False],nan,nan,nan
2025-03-05T19:06:38,-4857192.828,4024127.242,2717840.609,2991.074537,-1087.908116,6923.526235,59.2179,[False],nan,nan,nan
2025-03-05T19:06:48,-4826983.820,4013000.777,2786906.750,3050.665116,-1137.361924,6889.559881,59.1874,[False],nan,nan,nan
2025-03-05T19:06:58,-4796180.777,4001380.470,2855628.973,3109.880306,-1186.675792,6854.743315,59.1546,[False],nan,nan,nan
2025-03-05T19:07:08,-4764787.490,3989267.748,2923998.797,3168.712753,-1235.843610,6819.080864,59.1194,[False],nan,nan,nan
2025-03-05T19:07:18,-4732807.823,3976664.104,2992007.786,3227.155154,-1284.859288,6782.576962,59.0819,[False],nan,nan,nan
2025-03-05T19:07:28,-4700245.711,3963571.090,3059647.547,3285.200255,-1333.716756,6745.236149,59.0421,[False],nan,nan,nan
2025-03-05T19:07:38,-4667105.166,3949990.317,3126909.734,3342.840851,-1382.409963,6707.063071,58.9999,[False],nan,nan,nan
2025-03-05T19:07:48,-4633390.267,3935923.458,3193786.050,3400.069794,-1430.932881,6668.062479,58.9555,[False],nan,nan,nan
2025-03-05T19:07:58,-4599105.166,3921372.247,3260268.242,3456.879989,-1479.279500,6628.239226,58.9087,[False],nan,nan,nan
2025-03-05T19:08:08,-4564254.086,3906338.476,3326348.108,3513.264398,-1527.443830,6587.598270,58.8596,[False],nan,nan,nan
2025-03-05T19:08:18,-4528841.320,3890823.998,3392017.498,3569.216042,-1575.419903,6546.144669,58.8082,[False],nan,nan,nan
2025-03-05T19:08:28,-4492871.231,3874830.725,3457268.310,3624.728001,-1623.201773,6503.883580,58.7545,[False],nan,nan,nan
2025-03-05T19:08:38,-4456348.249,3858360.629,3522092.496,3679.793417,-1670.783519,6460.820262,58.6985,[False],nan,nan,nan
2025-03-05T19:08:48,-4419276.874,3841415.742,3586482.059,3734.405486,-1718.159243,6416.960066,58.6402,[False],nan,nan,nan
2025-03-05T19:08:58,-4381661.673,3823998.151,3650429.059,3788.557465,-1765.323072,6372.308441,58.5797,[False],nan,nan,nan
2025-03-05T19:09:08,-4343507.280,3806110.006,3713925.608,3842.242665,-1812.269155,6326.870931,58.5169,[False],nan,nan,nan
2025-03-05T19:09:18,-4304818.397,3787753.513,3776963.877,3895.454455,-1858.991668,6280.653177,58.4519,[False],nan,nan,nan
2025-03-05T19:09:28,-4265599.791,3768930.937,3839536.090,3948.186254,-1905.484807,6233.660920,58.3846,[False],nan,nan,nan
2025-03-05T19:09:38,-4225856.294,3749644.601,3901634.533,4000.431542,-1951.742798,6185.900000,58.3150,[False],nan,nan,nan
2025-03-05T19:09:48,-4185592.804,3729896.884,3963251.548,4052.183856,-1997.759892,6137.376361,58.2433,[False],nan,nan,nan
2025-03-05T19:09:58,-4144814.282,3709690.225,4024379.538,4103.436793,-2043.530374,6088.096050,58.1693,[False],nan,nan,nan
2025-03-05T19:10:08,-4103525.754,3689027.118,4085010.967,4154.184014,-2089.048565,6038.065215,58.0932,[False],nan,nan,nan
2025-03-05T19:10:18,-4061732.308,3667910.113,4145138.361,4204.419247,-2134.308827,5987.290100,58.0149,[False],nan,nan,nan
2025-03-05T19:10:28,-4019439.096,3646341.820,4204754.309,4254.136282,-2179.305560,5935.777047,57.9343,[False],nan,nan,nan
2025-03-05T19:10:38,-3976651.330,3624324.899,4263851.464,4303.328976,-2224.033209,5883.532486,57.8517,[False],nan,nan,nan
2025-03-05T19:10:48,-3933374.284,3601862.071,4322422.542,4351.991251,-2268.486258,5830.562939,57.7669,[False],nan,nan,nan
2025-03-05T19:10:58,-3889613.293,3578956.108,4380460.328,4400.117096,-2312.659230,5776.875016,57.6799,[False],nan,nan,nan
2025-03-05T19:11:08,-3845373.750,3555609.838,4437957.670,4447.700566,-2356.546686,5722.475414,57.5909,[False],nan,nan,nan
2025-03-05T19:11:18,-3800661.109,3531826.144,4494907.487,4494.735786,-2400.143226,5667.370921,57.4997,[False],nan,nan,nan
2025-03-05T19:11:28,-3755480.882,3507607.961,4551302.762,4541.216954,-2443.443486,5611.568416,57.4064,[False],nan,nan,nan
2025-03-05T19:11:38,-3709838.636,3482958.279,4607136.551,4587.138345,-2486.442139,5555.074861,57.3111,[False],nan,nan,nan
2025-03-05T19:11:48,-3663739.999,3457880.141,4662401.979,4632.494309,-2529.133900,5497.897306,57.2137,[False],nan,nan,nan
2025-03-05T19:11:58,-3617190.653,3432376.642,4717092.241,4677.279277,-2571.513525,5440.042883,57.1143,[False],nan,nan,nan
2025-03-05T19:12:08,-3570196.336,3406450.928,4771200.605,4721.487759,-2613.575809,5381.518802,57.0129,[False],nan,nan,nan
2025-03-05T19:12:18,-3522762.838,3380106.201,4824720.409,4765.114343,-2655.315593,5322.332350,56.9094,[False],nan,nan,nan
2025-03-05T19:12:28,-3474896.006,3353345.709,4877645.068,4808.153695,-2696.727757,5262.490886,56.8040,[False],nan,nan,nan
2025-03-05T19:12:38,-3426601.739,3326172.754,4929968.069,4850.600554,-2737.807224,5202.001843,56.6965,[False],nan,nan,nan
2025-03-05T19:12:48,-3377885.987,3298590.690,4981682.972,4892.449736,-2778.548959,5140.872726,56.5872,[False],nan,nan,nan
2025-03-05T19:12:58,-3328754.754,3270602.918,5032783.415,4933.696127,-2818.947972,5079.111110,56.4759,[False],nan,nan,nan
2025-03-05T19:13:08,-3279214.091,3242212.889,5083263.111,4974.334687,-2858.999312,5016.724645,56.3626,[False],nan,nan,nan
2025-03-05T19:13:18,-3229270.103,3213424.107,5133115.850,5014.360446,-2898.698074,4953.721051,56.2475,[False],nan,nan,nan
2025-03-05T19:13:28,-3178928.941,3184240.119,5182335.501,5053.768509,-2938.039392,4890.108125,56.1305,[False],nan,nan,nan
2025-03-05T19:13:38,-3128196.807,3154664.526,5230916.008,5092.554049,-2977.018447,4825.893734,56.0116,[False],nan,nan,nan
2025-03-05T19:13:48,-3077079.951,3124700.974,5278851.397,5130.712320,-3015.630459,4761.085823,55.8909,[False],nan,nan,nan
2025-03-05T19:13:58,-3025584.668,3094353.156,5326135.773,5168.238649,-3053.870696,4695.692408,55.7683,[False],nan,nan,nan
2025-03-05T19:14:08,-2973717.300,3063624.815,5372763.321,5205.128442,-3091.734468,4629.721583,55.6440,[False],nan,nan,nan
2025-03-05T19:14:18,-2921484.236,3032519.737,5418728.307,5241.377189,-3129.217131,4563.181510,55.5178,[False],nan,nan,nan
2025-03-05T19:14:28,-2868891.908,3001041.758,5464025.081,5276.980460,-3166.314090,4496.080422,55.3899,[False],nan,nan,nan
2025-03-05T19:14:38,-2815946.792,2969194.756,5508648.073,5311.933908,-3203.020798,4428.426621,55.2602,[False],nan,nan,nan
2025-03-05T19:14:48,-2762655.410,2936982.658,5552591.799,5346.233267,-3239.332756,4360.228473,55.1288,[False],nan,nan,nan
2025-03-05T19:14:58,-2709024.321,2904409.432,5595850.856,5379.874354,-3275.245516,4291.494410,54.9957,[False],nan,nan,nan
2025-03-05T19:15:08,-2655060.131,2871479.093,5638419.929,5412.853067,-3310.754682,4222.232929,54.8609,[False],nan,nan,nan
2025-03-05T19:15:18,-2600769.481,2838195.698,5680293.785,5445.165387,-3345.855904,4152.452590,54.7244,[False],nan,nan,nan
2025-03-05T19:15:28,-2546159.057,2804563.349,5721467.280,5476.807376,-3380.544889,4082.162015,54.5863,[False],nan,nan,nan
2025-03-05T19:15:38,-2491235.581,2770586.189,5761935.354,5507.775179,-3414.817391,4011.369890,54.4465,[False],nan,nan,nan
2025-03-05T19:15:48,-2436005.814,2736268.403,5801693.035,5538.065029,-3448.669219,3940.084961,54.3051,[False],nan,nan,nan
2025-03-05T19:15:58,-2380476.553,2701614.220,5840735.440,5567.673241,-3482.096236,3868.316032,54.1622,[False],nan,nan,nan
2025-03-05T19:16:08,-2324654.633,2666627.908,5879057.772,5596.596219,-3515.094358,3796.071967,54.0177,[False],nan,nan,nan
2025-03-05T19:16:18,-2268546.924,2631313.776,5916655.325,5624.830451,-3547.659556,3723.361682,53.8716,[False],nan,nan,nan
2025-03-05T19:16:28,-2212160.331,2595676.174,5953523.481,5652.372515,-3579.787856,3650.194148,53.7240,[False],nan,nan,nan
2025-03-05T19:16:38,-2155501.792,2559719.489,5989657.714,5679.219072,-3611.475338,3576.578388,53.5748,[False],nan,nan,nan
2025-03-05T19:16:48,-2098578.279,2523448.149,6025053.585,5705.366870,-3642.718138,3502.523475,53.4242,[False],nan,nan,nan
2025-03-05T19:16:58,-2041396.795,2486866.621,6059706.750,5730.812743,-3673.512445,3428.038532,53.2721,[False],nan,nan,nan
2025-03-05T19:17:08,-1983964.374,2449979.408,6093612.953,5755.553611,-3703.854506,3353.132732,53.1186,[False],nan,nan,nan
2025-03-05T19:17:18,-1926288.082,2412791.051,6126768.032,5779.586477,-3733.740621,3277.815294,52.9636,[False],nan,nan,nan
2025-03-05T19:17:28,-1868375.014,2375306.127,6159167.918,5802.908433,-3763.167147,3202.095488,52.8073,[False],nan,nan,nan
2025-03-05T19:17:38,-1810232.293,2337529.252,6190808.632,5825.516655,-3792.130495,3125.982630,52.6495,[False],nan,nan,nan
2025-03-05T19:17:48,-1751867.069,2299465.073,6221686.291,5847.408408,-3820.627136,3049.486084,52.4904,[False],nan,nan,nan
2025-03-05T19:17:58,-1693286.522,2261118.276,6251797.106,5868.581045,-3848.653595,2972.615256,52.3299,[False],nan,nan,nan
2025-03-05T19:18:08,-1634497.854,2222493.580,6281137.380,5889.032007,-3876.206458,2895.379600,52.1680,[False],nan,nan,nan
2025-03-05T19:18:18,-1575508.295,2183595.737,6309703.513,5908.758824,-3903.282366,2817.788608,52.0049,[False],nan,nan,nan
2025-03-05T19:18:28,-1516325.099,2144429.533,6337492.000,5927.759114,-3929.878021,2739.851816,51.8405,[False],nan,nan,nan
2025-03-05T19:18:38,-1456955.542,2104999.788,6364499.429,5946.030584,-3955.990186,2661.578796,51.6748,[False],nan,nan,nan
2025-03-05T19:18:48,-1397406.924,2065311.352,6390722.487,5963.571026,-3981.615680,2582.979162,51.5079,[False],nan,nan,nan
2025-03-05T19:18:58,-1337686.566,2025369.107,6416157.956,5980.378322,-4006.751388,2504.062561,51.3397,[False],nan,nan,nan
2025-03-05T19:19:08,-1277801.809,1985177.967,6440802.714,5996.450442,-4031.394252,2424.838681,51.1703,[False],nan,nan,nan
2025-03-05T19:19:18,-1217760.014,1944742.875,6464653.737,6011.785442,-4055.541280,2345.317242,50.9997,[False],nan,nan,nan
2025-03-05T19:19:28,-1157568.563,1904068.804,6487708.099,6026.381469,-4079.189537,2265.508001,50.8280,[False],nan,nan,nan
2025-03-05T19:19:38,-1097234.854,1863160.756,6509962.971,6040.236759,-4102.336153,2185.420744,50.6551,[False],nan,nan,nan
2025-03-05T19:19:48,-1036766.302,1822023.762,6531415.620,6053.349636,-4124.978318,2105.065288,50.4810,[False],nan,nan,nan
2025-03-05T19:19:58,-976170.341,1780662.880,6552063.415,6065.718513,-4147.113281,2024.451480,50.3059,[False],nan,nan,nan
2025-03-05T19:20:08,-915454.417,1739083.196,6571903.822,6077.341888,-4168.738353,1943.589196,50.1296,[False],nan,nan,nan
2025-03-05T19:20:18,-854625.993,1697289.822,6590934.404,6088.218350,-4189.850904,1862.488340,49.9523,[False],nan,nan,nan
2025-03-05T19:20:28,-793692.544,1655287.895,6609152.826,6098.346572,-4210.448365,1781.158850,49.7739,[False],nan,nan,nan
2025-03-05T19:20:38,-732661.560,1613082.580,6626556.852,6107.725317,-4230.528228,1699.610691,49.5944,[False],nan,nan,nan
2025-03-05T19:20:48,-671540.540,1570679.064,6643144.345,6116.353436,-4250.088050,1617.853860,49.4140,[False],nan,nan,nan
2025-03-05T19:20:58,-610336.997,1528082.560,6658913.267,6124.229876,-4269.125449,1535.898380,49.2325,[False],nan,nan,nan
2025-03-05T19:21:08,-549058.451,1485298.304,6673861.683,6131.353671,-4287.638107,1453.754302,49.0501,[False],nan,nan,nan
2025-03-05T19:21:18,-487712.435,1442331.555,6687987.758,6137.723953,-4305.623772,1371.431697,48.8666,[False],nan,nan,nan
2025-03-05T19:21:28,-426306.487,1399187.593,6701289.756,6143.339944,-4323.080252,1288.940662,48.6823,[False],nan,nan,nan
2025-03-05T19:21:38,-364848.153,1355871.721,6713766.044,6148.200958,-4340.005421,1206.291313,48.4970,[False],nan,nan,nan
2025-03-05T19:21:48,-303344.986,1312389.262,6725415.088,6152.306405,-4356.397217,1123.493785,48.3108,[False],nan,nan,nan
2025-03-05T19:21:58,-241804.545,1268745.561,6736235.459,6155.655787,-4372.253641,1040.558234,48.1236,[False],nan,nan,nan
2025-03-05T19:22:08,-180234.392,1224945.980,6746225.827,6158.248702,-4387.572762,957.494832,47.9357,[False],nan,nan,nan
2025-03-05T19:22:18,-118642.093,1180995.903,6755384.964,6160.084844,-4402.352715,874.313764,47.7468,[False],nan,nan,nan
2025-03-05T19:22:28,-57035.218,1136900.729,6763711.744,6161.164001,-4416.591703,791.025228,47.5571,[False],nan,nan,nan
2025-03-05T19:22:38,4578.663,1092665.878,6771205.144,6161.486057,-4430.287991,707.639427,47.3666,[False],nan,nan,nan
2025-03-05T19:22:48,66191.979,1048296.784,6777864.242,6161.050987,-4443.439913,624.166570,47.1753,[False],nan,nan,nan
2025-03-05T19:22:58,127797.159,1003798.900,6783688.219,6159.858855,-4456.045865,540.616872,46.9831,[False],nan,nan,nan
2025-03-05T19:23:08,189386.633,959177.692,6788676.358,6157.909811,-4468.104305,457.000553,46.7903,[False],nan,nan,nan
2025-03-05T19:23:18,250952.833,914438.644,6792828.042,6155.204094,-4479.613755,373.327842,46.5966,[False],nan,nan,nan
2025-03-05T19:23:28,312488.194,869587.251,6796142.761,6151.742027,-4490.572805,289.608978,46.4022,[False],nan,nan,nan
2025-03-05T19:23:38,373985.154,824629.027,6798620.102,6147.524022,-4500.980109,205.854212,46.2071,[False],nan,nan,nan
2025-03-05T19:23:48,435436.156,779569.493,6800259.759,6142.550584,-4510.834391,122.073801,46.0113,[False],nan,nan,nan
2025-03-05T19:23:58,496833.649,734414.186,6801061.527,6136.822308,-4520.134444,38.278013,45.8148,[False],nan,nan,nan
2025-03-05T19:24:08,558170.088,689168.655,6801025.303,6130.339883,-4528.879134,-45.522884,45.6176,[False],nan,nan,nan
2025-03-05T19:24:18,619437.936,643838.458,6800151.086,6123.104092,-4537.067395,-129.318618,45.4198,[False],nan,nan,nan
2025-03-05T19:24:28,680629.662,598429.165,6798438.982,6115.115813,-4544.698229,-213.098925,45.2213,[False],nan,nan,nan
2025-03-05T19:24:38,741737.747,552946.355,6795889.194,6106.376014,-4551.770707,-296.853544,45.0222,[False],nan,nan,nan
2025-03-05T19:24:48,802754.681,507395.615,6792502.031,6096.885758,-4558.283962,-380.572221,44.8225,[False],nan,nan,nan
2025-03-05T19:24:58,863672.964,461782.542,6788277.903,6086.646193,-4564.237195,-464.244708,44.6222,[False],nan,nan,nan
2025-03-05T19:25:08,924485.111,416112.740,6783217.325,6075.658559,-4569.629670,-547.860763,44.4213,[False],nan,nan,nan
2025-03-05T19:25:18,985183.646,370391.820,6777320.910,6063.924188,-4574.460718,-631.410150,44.2199,[False],nan,nan,nan
2025-03-05T19:25:28,1045761.110,324625.400,6770589.378,6051.444497,-4578.729735,-714.882639,44.0179,[False],nan,nan,nan
2025-03-05T19:25:38,1106210.057,278819.101,6763023.548,6038.220996,-4582.436187,-798.268004,43.8154,[False],nan,nan,nan
2025-03-05T19:25:48,1166523.056,232978.553,6754624.342,6024.255286,-4585.579607,-881.556031,43.6124,[False],nan,nan,nan
2025-03-05T19:25:58,1226692.694,187109.387,6745392.786,6009.549057,-4588.159598,-964.736514,43.4089,[False],nan,nan,nan
2025-03-05T19:26:08,1286711.575,141217.240,6735330.004,5994.104090,-4590.175834,-1047.799258,43.2050,[False],nan,nan,nan
2025-03-05T19:26:18,1346572.320,95307.750,6724437.227,5977.922256,-4591.628059,-1130.734086,43.0005,[False],nan,nan,nan
2025-03-05T19:26:28,1406267.570,49386.559,6712715.783,5961.005515,-4592.516086,-1213.530832,42.7956,[False],nan,nan,nan
2025-03-05T19:26:38,1465789.987,3459.310,6700167.104,5943.355917,-4592.839797,-1296.179351,42.5903,[False],nan,nan,nan
2025-03-05T19:26:48,1525132.253,-42468.355,6686792.724,5924.975598,-4592.599144,-1378.669514,42.3846,[False],nan,nan,nan
2025-03-05T19:26:58,1584287.071,-88390.792,6672594.276,5905.866786,-4591.794144,-1460.991212,42.1785,[False],nan,nan,nan
2025-03-05T19:27:08,1643247.168,-134302.357,6657573.495,5886.031795,-4590.424886,-1543.134357,41.9720,[False],nan,nan,nan
2025-03-05T19:27:18,1702005.294,-180197.409,6641732.217,5865.473028,-4588.491526,-1625.088882,41.7651,[False],nan,nan,nan
2025-03-05T19:27:28,1760554.224,-226070.308,6625072.379,5844.192975,-4585.994286,-1706.844744,41.5579,[False],nan,nan,nan
2025-03-05T19:27:38,1818886.758,-271915.417,6607596.018,5822.194214,-4582.933458,-1788.391924,41.3504,[False],nan,nan,nan
2025-03-05T19:27:48,1876995.722,-317727.100,6589305.270,5799.479409,-4579.309402,-1869.720430,41.1425,[False],nan,nan,nan
2025-03-05T19:27:58,1934873.969,-363499.729,6570202.371,5776.051308,-4575.122543,-1950.820295,40.9343,[False],nan,nan,nan
2025-03-05T19:28:08,1992514.380,-409227.677,6550289.659,5751.912748,-4570.373373,-2031.681583,40.7259,[False],nan,nan,nan
2025-03-05T19:28:18,2049909.865,-454905.324,6529569.568,5727.066649,-4565.062451,-2112.294384,40.5172,[False],nan,nan,nan
2025-03-05T19:28:28,2107053.364,-500527.055,6508044.633,5701.516014,-4559.190400,-2192.648817,40.3082,[False],nan,nan,nan
2025-03-05T19:28:38,2163937.847,-546087.263,6485717.486,5675.263935,-4552.757910,-2272.735032,40.0990,[False],nan,nan,nan
2025-03-05T19:28:48,2220556.315,-591580.348,6462590.859,5648.313583,-4545.765735,-2352.543209,39.8896,[False],nan,nan,nan
2025-03-05T19:28:58,2276901.802,-637000.715,6438667.581,5620.668217,-4538.214694,-2432.063560,39.6799,[False],nan,nan,nan
2025-03-05T19:29:08,2332967.374,-682342.782,6413950.580,5592.331178,-4530.105672,-2511.286327,39.4701,[False],nan,nan,nan
2025-03-05T19:29:18,2388746.132,-727600.972,6388442.879,5563.305889,-4521.439618,-2590.201786,39.2601,[False],nan,nan,nan
2025-03-05T19:29:28,2444231.209,-772769.721,6362147.601,5533.595857,-4512.217549,-2668.800243,39.0499,[False],nan,nan,nan
2025-03-05T19:29:38,2499415.778,-817843.473,6335067.963,5503.204672,-4502.440546,-2747.072039,38.8396,[False],nan,nan,nan
2025-03-05T19:29:48,2554293.045,-862816.686,6307207.281,5472.136007,-4492.109760,-2825.007545,38.6292,[False],nan,nan,nan
2025-03-05T19:29:58,2608856.253,-907683.826,6278568.965,5440.393621,-4481.226411,-2902.597169,38.4187,[False],nan,nan,nan
2025-03-05T19:30:08,2663098.684,-952439.376,6249156.522,5407.981356,-4469.791789,-2979.831356,38.2081,[False],nan,nan,nan
2025-03-05T19:30:18,2717013.660,-997077.829,6218973.554,5374.903139,-4457.807256,-3056.700593,37.9974,[False],nan,nan,nan
2025-03-05T19:30:28,2770594.540,-1041593.693,6188023.758,5341.162977,-4445.274238,-3133.195410,37.7867,[False],nan,nan,nan
2025-03-05T19:30:38,2823834.727,-1085981.491,6156310.926,5306.764963,-4432.194232,-3209.306382,37.5759,[False],nan,nan,nan
2025-03-05T19:30:48,2876727.661,-1130235.760,6123838.941,5271.713269,-4418.568801,-3285.024129,37.3651,[False],nan,nan,nan
2025-03-05T19:30:58,2929266.827,-1174351.054,6090611.785,5236.012146,-4404.399570,-3360.339319,37.1543,[False],nan,nan,nan
2025-03-05T19:31:08,2981445.753,-1218321.944,6056633.528,5199.665927,-4389.688230,-3435.242665,36.9435,[False],nan,nan,nan
2025-03-05T19:31:18,3033258.010,-1262143.017,6021908.335,5162.679023,-4374.436538,-3509.724927,36.7327,[False],nan,nan,nan
2025-03-05T19:31:28,3084697.213,-1305808.880,5986440.464,5125.055928,-4358.646314,-3583.776911,36.5220,[False],nan,nan,nan
2025-03-05T19:31:38,3135757.023,-1349314.155,5950234.262,5086.801213,-4342.319447,-3657.389473,36.3113,[False],nan,nan,nan
2025-03-05T19:31:48,3186431.147,-1392653.486,5913294.169,5047.919529,-4325.457891,-3730.553517,36.1008,[False],nan,nan,nan
2025-03-05T19:31:58,3236713.340,-1435821.537,5875624.717,5008.415604,-4308.063669,-3803.259998,35.8903,[False],nan,nan,nan
2025-03-05T19:32:08,3286597.401,-1478812.991,5837230.524,4968.294247,-4290.138870,-3875.499926,35.6800,[False],nan,nan,nan
2025-03-05T19:32:18,3336077.183,-1521622.553,5798116.303,4927.560342,-4271.685652,-3947.264360,35.4698,[False],nan,nan,nan
2025-03-05T19:32:28,3385146.583,-1564244.950,5758286.852,4886.218849,-4252.706236,-4018.544419,35.2597,[False],nan,nan,nan
2025-03-05T19:32:38,3433799.551,-1606674.931,5717747.059,4844.274808,-4233.202912,-4089.331273,35.0498,[False],nan,nan,nan
2025-03-05T19:32:48,3482030.088,-1648907.270,5676501.900,4801.733333,-4213.178035,-4159.616153,34.8402,[False],nan,nan,nan
2025-03-05T19:32:58,3529832.244,-1690936.762,5634556.438,4758.599617,-4192.634028,-4229.390345,34.6307,[False],nan,nan,nan
2025-03-05T19:33:08,3577200.123,-1732758.228,5591915.824,4714.878928,-4171.573377,-4298.645199,34.4215,[False],nan,nan,nan
2025-03-05T19:33:18,3624127.884,-1774366.516,5548585.294,4670.576607,-4149.998638,-4367.372126,34.2125,[False],nan,nan,nan
2025-03-05T19:33:28,3670609.735,-1815756.496,5504570.170,4625.698067,-4127.912430,-4435.562599,34.0038,[False],nan,nan,nan
2025-03-05T19:33:38,3716639.942,-1856923.068,5459875.858,4580.248797,-4105.317439,-4503.208157,33.7954,[False],nan,nan,nan
2025-03-05T19:33:48,3762212.827,-1897861.158,5414507.851,4534.234354,-4082.216415,-4570.300400,33.5873,[False],nan,nan,nan
2025-03-05T19:33:58,3807322.764,-1938565.719,5368471.722,4487.660369,-4058.612173,-4636.830997,33.3796,[False],nan,nan,nan
2025-03-05T19:34:08,3851964.188,-1979031.734,5321773.131,4440.532544,-4034.507594,-4702.791683,33.1722,[False],nan,nan,nan
2025-03-05T19:34:18,3896131.588,-2019254.213,5274417.816,4392.856655,-4009.905622,-4768.174261,32.9652,[False],nan,nan,nan
2025-03-05T19:34:28,3939819.514,-2059228.198,5226411.599,4344.638546,-3984.809266,-4832.970609,32.7586,[False],nan,nan,nan
2025-03-05T19:34:38,3983022.572,-2098948.761,5177760.384,4295.884131,-3959.221597,-4897.172677,32.5524,[False],nan,nan,nan
2025-03-05T19:34:48,4025735.429,-2138411.003,5128470.153,4246.599391,-3933.145745,-4960.772489,32.3466,[False],nan,nan,nan
2025-03-05T19:34:58,4067952.812,-2177610.059,5078546.969,4196.790372,-3906.584904,-5023.762146,32.1414,[False],nan,nan,nan
2025-03-05T19:35:08,4109669.509,-2216541.095,5027996.970,4146.463184,-3879.542323,-5086.133822,31.9366,[False],nan,nan,nan
2025-03-05T19:35:18,4150880.369,-2255199.311,4976826.378,4095.624000,-3852.021312,-5147.879768,31.7323,[False],nan,nan,nan
2025-03-05T19:35:28,4191580.303,-2293579.938,4925041.486,4044.279057,-3824.025240,-5208.992308,31.5286,[False],nan,nan,nan
2025-03-05T19:35:38,4231764.285,-2331678.243,4872648.668,3992.434653,-3795.557534,-5269.463838,31.3254,[False],nan,nan,nan
2025-03-05T19:35:48,4271427.352,-2369489.528,4819654.371,3940.097151,-3766.621679,-5329.286832,31.1229,[False],nan,nan,nan
2025-03-05T19:35:58,4310564.606,-2407009.128,4766065.118,3887.272980,-3737.221223,-5388.453839,30.9209,[False],nan,nan,nan
2025-03-05T19:36:08,4349171.211,-2444232.416,4711887.506,3833.968629,-3707.359772,-5446.957486,30.7196,[False],nan,nan,nan
2025-03-05T19:36:18,4387242.400,-2481154.799,4657128.204,3780.190654,-3677.040992,-5504.790480,30.5189,[False],nan,nan,nan
2025-03-05T19:36:28,4424773.468,-2517771.724,4601793.956,3725.945673,-3646.268609,-5561.945610,30.3189,[False],nan,nan,nan
2025-03-05T19:36:38,4461759.779,-2554078.672,4545891.575,3671.240363,-3615.046408,-5618.415750,30.1197,[False],nan,nan,nan
2025-03-05T19:36:48,4498196.763,-2590071.165,4489427.948,3616.081466,-3583.378231,-5674.193857,29.9212,[False],nan,nan,nan
2025-03-05T19:36:58,4534079.919,-2625744.763,4432410.028,3560.475780,-3551.267978,-5729.272978,29.7235,[False],nan,nan,nan
2025-03-05T19:37:08,4569404.812,-2661095.064,4374844.841,3504.430162,-3518.719604,-5783.646249,29.5265,[False],nan,nan,nan
2025-03-05T19:37:18,4604167.079,-2696117.708,4316739.479,3447.951523,-3485.737119,-5837.306893,29.3304,[False],nan,nan,nan
2025-03-05T19:37:28,4638362.422,-2730808.373,4258101.101,3391.046829,-3452.324586,-5890.248223,29.1352,[False],nan,nan,nan
2025-03-05T19:37:38,4671986.618,-2765162.780,4198936.934,3333.723099,-3418.486121,-5942.463642,28.9408,[False],nan,nan,nan
2025-03-05T19:37:48,4705035.511,-2799176.690,4139254.269,3275.987402,-3384.225891,-5993.946641,28.7474,[False],nan,nan,nan
2025-03-05T19:37:58,4737505.017,-2832845.906,4079060.464,3217.846861,-3349.548116,-6044.690800,28.5549,[False],nan,nan,nan
2025-03-05T19:38:08,4769391.123,-2866166.274,4018362.937,3159.308651,-3314.457068,-6094.689785,28.3634,[False],nan,nan,nan
2025-03-05T19:38:18,4800689.888,-2899133.684,3957169.173,3100.379995,-3278.957070,-6143.937356,28.1729,[False],nan,nan,nan
2025-03-05T19:38:28,4831397.446,-2931744.067,3895486.715,3041.068171,-3243.052500,-6192.427360,27.9835,[False],nan,nan,nan
2025-03-05T19:38:38,4861509.999,-2963993.400,3833323.171,2981.380506,-3206.747784,-6240.153736,27.7951,[False],nan,nan,nan
2025-03-05T19:38:48,4891023.827,-2995877.704,3770686.206,2921.324376,-3170.047403,-6287.110518,27.6079,[False],nan,nan,nan
2025-03-05T19:38:58,4919935.283,-3027393.045,3707583.546,2860.907207,-3132.955886,-6333.291832,27.4218,[False],nan,nan,nan
2025-03-05T19:39:08,4948240.793,-3058535.533,3644022.974,2800.136473,-3095.477817,-6378.691900,27.2368,[False],nan,nan,nan
2025-03-05T19:39:18,4975936.859,-3089301.328,3580012.331,2739.019696,-3057.617825,-6423.305043,27.0531,[False],nan,nan,nan
2025-03-05T19:39:28,5003020.059,-3119686.632,3515559.514,2677.564443,-3019.380592,-6467.125674,26.8707,[False],nan,nan,nan
2025-03-05T19:39:38,5029487.045,-3149687.698,3450672.477,2615.778329,-2980.770848,-6510.148310,26.6895,[False],nan,nan,nan
2025-03-05T19:39:48,5055334.548,-3179300.823,3385359.226,2553.669012,-2941.793372,-6552.367565,26.5097,[False],nan,nan,nan
2025-03-05T19:39:58,5080559.374,-3208522.356,3319627.821,2491.244196,-2902.452989,-6593.778156,26.3312,[False],nan,nan,nan
2025-03-05T19:40:08,5105158.406,-3237348.690,3253486.376,2428.511625,-2862.754572,-6634.374901,26.1542,[False],nan,nan,nan
2025-03-05T19:40:18,5129128.606,-3265776.270,3186943.053,2365.479083,-2822.703040,-6674.152721,25.9786,[False],nan,nan,nan
2025-03-05T19:40:28,5152467.014,-3293801.590,3120006.068,2302.154395,-2782.303359,-6713.106640,25.8044,[False],nan,nan,nan
2025-03-05T19:40:38,5175170.746,-3321421.193,3052683.683,2238.545422,-2741.560536,-6751.231787,25.6318,[False],nan,nan,nan
2025-03-05T19:40:48,5197237.001,-3348631.674,2984984.211,2174.660064,-2700.479625,-6788.523392,25.4608,[False],nan,nan,nan
2025-03-05T19:40:58,5218663.053,-3375429.676,2916916.009,2110.506255,-2659.065723,-6824.976793,25.2914,[False],nan,nan,nan
2025-03-05T19:41:08,5239446.258,-3401811.895,2848487.484,2046.091968,-2617.323970,-6860.587430,25.1236,[False],nan,nan,nan
2025-03-05T19:41:18,5259584.051,-3427775.080,2779707.085,1981.425207,-2575.259549,-6895.350850,24.9575,[False],nan,nan,nan
2025-03-05T19:41:28,5279073.947,-3453316.028,2710583.305,1916.514013,-2532.877685,-6929.262708,24.7932,[False],nan,nan,nan
2025-03-05T19:41:38,5297913.543,-3478431.593,2641124.683,1851.366457,-2490.183647,-6962.318766,24.6306,[False],nan,nan,nan
2025-03-05T19:41:48,5316100.515,-3503118.678,2571339.797,1785.990643,-2447.182742,-6994.514894,24.4699,[False],nan,nan,nan
2025-03-05T19:41:58,5333632.622,-3527374.243,2501237.265,1720.394704,-2403.880318,-7025.847074,24.3111,[False],nan,nan,nan
2025-03-05T19:42:08,5350507.703,-3551195.298,2430825.748,1654.586801,-2360.281763,-7056.311397,24.1542,[False],nan,nan,nan
2025-03-05T19:42:18,5366723.679,-3574578.909,2360113.943,1588.575122,-2316.392502,-7085.904064,23.9992,[False],nan,nan,nan
2025-03-05T19:42:28,5382278.554,-3597522.197,2289110.584,1522.367881,-2272.217996,-7114.621389,23.8463,[False],nan,nan,nan
2025-03-05T19:42:38,5397170.412,-3620022.336,2217824.445,1455.973318,-2227.763744,-7142.459794,23.6954,[False],nan,nan,nan
2025-03-05T19:42:48,5411397.423,-3642076.558,2146264.330,1389.399694,-2183.035278,-7169.415816,23.5466,[False],nan,nan,nan
2025-03-05T19:42:58,5424957.837,-3663682.146,2074439.081,1322.655296,-2138.038166,-7195.486100,23.4001,[False],nan,nan,nan
2025-03-05T19:43:08,5437849.987,-3684836.444,2002357.571,1255.748430,-2092.778008,-7220.667403,23.2557,[False],nan,nan,nan
2025-03-05T19:43:18,5450072.292,-3705536.849,1930028.707,1188.687426,-2047.260441,-7244.956593,23.1136,[False],nan,nan,nan
2025-03-05T19:43:28,5461623.250,-3725780.814,1857461.423,1121.480634,-2001.491132,-7268.350653,22.9738,[False],nan,nan,nan
2025-03-05T19:43:38,5472501.446,-3745565.851,1784664.687,1054.136423,-1955.475781,-7290.846675,22.8364,[False],nan,nan,nan
2025-03-05T19:43:48,5482705.548,-3764889.528,1711647.492,986.663182,-1909.220123,-7312.441867,22.7014,[False],nan,nan,nan
2025-03-05T19:43:58,5492234.308,-3783749.472,1638418.861,919.069319,-1862.729922,-7333.133551,22.5688,[False],nan,nan,nan
2025-03-05T19:44:08,5501086.561,-3802143.364,1564987.842,851.363257,-1816.010973,-7352.919166,22.4388,[False],nan,nan,nan
2025-03-05T19:44:18,5509261.227,-3820068.948,1491363.506,783.553435,-1769.069101,-7371.796264,22.3114,[False],nan,nan,nan
2025-03-05T19:44:28,5516757.312,-3837524.023,1417554.952,715.648304,-1721.910160,-7389.762518,22.1866,[False],nan,nan,nan
2025-03-05T19:44:38,5523573.904,-3854506.447,1343571.300,647.656329,-1674.540031,-7406.815715,22.0645,[False],nan,nan,nan
2025-03-05T19:44:48,5529710.177,-3871014.139,1269421.689,579.585983,-1626.964622,-7422.953759,21.9451,[False],nan,nan,nan
2025-03-05T19:44:58,5535165.390,-3887045.075,1195115.281,511.445750,-1579.189868,-7438.174674,21.8285,[False],nan,nan,nan
2025-03-05T19:45:08,5539938.887,-3902597.292,1120661.259,443.244123,-1531.221727,-7452.476597,21.7148,[False],nan,nan,nan
2025-03-05T19:45:18,5544030.096,-3917668.885,1046068.819,374.989600,-1483.066183,-7465.857783,21.6039,[False],nan,nan,nan
2025-03-05T19:45:28,5547438.531,-3932258.011,971347.177,306.690688,-1434.729245,-7478.316607,21.4960,[False],nan,nan,nan
2025-03-05T19:45:38,5550163.791,-3946362.885,896505.566,238.355896,-1386.216942,-7489.851557,21.3911,[False],nan,nan,nan
2025-03-05T19:45:48,5552205.558,-3959981.785,821553.231,169.993739,-1337.535328,-7500.461241,21.2892,[False],nan,nan,nan
2025-03-05T19:45:58,5553563.603,-3973113.048,746499.430,101.612736,-1288.690477,-7510.144385,21.1904,[False],nan,nan,nan
2025-03-05T19:46:08,5554237.778,-3985755.071,671353.435,33.221407,-1239.688485,-7518.899831,21.0948,[False],nan,nan,nan
2025-03-05T19:46:18,5554228.025,-3997906.314,596124.529,-35.171727,-1190.535466,-7526.726543,21.0024,[False],nan,nan,nan
2025-03-05T19:46:28,5553534.366,-4009565.297,520822.003,-103.558144,-1141.237555,-7533.623598,20.9133,[False],nan,nan,nan
2025-03-05T19:46:38,5552156.913,-4020730.603,445455.159,-171.929323,-1091.800906,-7539.590198,20.8274,[False],nan,nan,nan
2025-03-05T19:46:48,5550095.859,-4031400.874,370033.303,-240.276746,-1042.231687,-7544.625659,20.7449,[False],nan,nan,nan
2025-03-05T19:46:58,5547351.485,-4041574.815,294565.751,-308.591896,-992.536086,-7548.729420,20.6658,[False],nan,nan,nan
2025-03-05T19:47:08,5543924.157,-4051251.195,219061.822,-376.866262,-942.720304,-7551.901039,20.5901,[False],nan,nan,nan
2025-03-05T19:47:18,5539814.324,-4060428.841,143530.838,-445.091340,-892.790559,-7554.140193,20.5179,[False],nan,nan,nan
2025-03-05T19:47:28,5535022.523,-4069106.647,67982.127,-513.258631,-842.753081,-7555.446681,20.4492,[False],nan,nan,nan
2025-03-05T19:47:38,5529549.373,-4077283.565,-7574.986,-581.359646,-792.614114,-7555.820420,20.3841,[False],nan,nan,nan
2025-03-05T19:47:48,5523395.579,-4084958.612,-83131.173,-649.385906,-742.379915,-7555.261448,20.3227,[False],nan,nan,nan
2025-03-05T19:47:58,5516561.932,-4092130.867,-158677.106,-717.328943,-692.056750,-7553.769922,20.2648,[False],nan,nan,nan
2025-03-05T19:48:08,5509049.306,-4098799.471,-234203.463,-785.180301,-641.650895,-7551.346120,20.2107,[False],nan,nan,nan
2025-03-05T19:48:18,5500858.660,-4104963.630,-309700.923,-852.931538,-591.168638,-7547.990439,20.1603,[False],nan,nan,nan
2025-03-05T19:48:28,5491991.037,-4110622.610,-385160.168,-920.574226,-540.616273,-7543.703397,20.1136,[False],nan,nan,nan
2025-03-05T19:48:38,5482447.565,-4115775.742,-460571.888,-988.099954,-490.000100,-7538.485628,20.0707,[False],nan,nan,nan
2025-03-05T19:48:48,5472229.456,-4120422.420,-535926.780,-1055.500328,-439.326427,-7532.337889,20.0317,[False],nan,nan,nan
2025-03-05T19:48:58,5461338.004,-4124562.100,-611215.549,-1122.766974,-388.601568,-7525.261053,19.9964,[False],nan,nan,nan
2025-03-05T19:49:08,5449774.590,-4128194.302,-686428.908,-1189.891534,-337.831840,-7517.256110,19.9651,[False],nan,nan,nan
2025-03-05T19:49:18,5437540.675,-4131318.609,-761557.581,-1256.865674,-287.023565,-7508.324171,19.9377,[False],nan,nan,nan
2025-03-05T19:49:28,5424637.805,-4133934.666,-836592.305,-1323.681078,-236.183068,-7498.466461,19.9141,[False],nan,nan,nan
2025-03-05T19:49:38,5411067.610,-4136042.184,-911523.829,-1390.329452,-185.316679,-7487.684324,19.8945,[False],nan,nan,nan
2025-03-05T19:49:48,5396831.801,-4137640.934,-986342.915,-1456.802525,-134.430728,-7475.979225,19.8789,[False],nan,nan,nan
2025-03-05T19:49:58,5381932.171,-4138730.754,-1061040.342,-1523.092053,-83.531547,-7463.352743,19.8672,[False],nan,nan,nan
2025-03-05T19:50:08,5366370.599,-4139311.542,-1135606.904,-1589.189815,-32.625471,-7449.806579,19.8595,[False],nan,nan,nan
2025-03-05T19:50:18,5350149.042,-4139383.262,-1210033.414,-1655.087620,18.281170,-7435.342551,19.8558,[False],nan,nan,nan
2025-03-05T19:50:28,5333269.540,-4138945.938,-1284310.702,-1720.777308,69.182047,-7419.962596,19.8560,[False],nan,nan,nan
2025-03-05T19:50:38,5315734.216,-4137999.661,-1358429.620,-1786.250748,120.070834,-7403.668766,19.8603,[False],nan,nan,nan
2025-03-05T19:50:48,5297545.273,-4136544.583,-1432381.038,-1851.499845,170.941213,-7386.463229,19.8685,[False],nan,nan,nan
2025-03-05T19:50:58,5278704.994,-4134580.919,-1506155.853,-1916.516537,221.786869,-7368.348267,19.8808,[False],nan,nan,nan
2025-03-05T19:51:08,5259215.744,-4132108.949,-1579744.980,-1981.292794,272.601496,-7349.326272,19.8970,[False],nan,nan,nan
2025-03-05T19:51:18,5239079.966,-4129129.014,-1653139.363,-2045.820623,323.378796,-7329.399750,19.9173,[False],nan,nan,nan
2025-03-05T19:51:28,5218300.186,-4125641.518,-1726329.969,-2110.092060,374.112478,-7308.571316,19.9415,[False],nan,nan,nan
2025-03-05T19:51:38,5196879.006,-4121646.931,-1799307.792,-2174.099179,424.796259,-7286.843697,19.9697,[False],nan,nan,nan
2025-03-05T19:51:48,5174819.110,-4117145.781,-1872063.855,-2237.834086,475.423863,-7264.219733,20.0018,[False],nan,nan,nan
2025-03-05T19:51:58,5152123.258,-4112138.661,-1944589.209,-2301.288923,525.989026,-7240.702375,20.0379,[False],nan,nan,nan
2025-03-05T19:52:08,5128794.291,-4106626.229,-2016874.935,-2364.455871,576.485490,-7216.294685,20.0779,[False],nan,nan,nan
2025-03-05T19:52:18,5104835.126,-4100609.201,-2088912.145,-2427.327147,626.907012,-7190.999842,20.1217,[False],nan,nan,nan
2025-03-05T19:52:28,5080248.759,-4094088.359,-2160691.985,-2489.895010,677.247357,-7164.821132,20.1695,[False],nan,nan,nan
2025-03-05T19:52:38,5055038.263,-4087064.546,-2232205.633,-2552.151762,727.500304,-7137.761955,20.2211,[False],nan,nan,nan
2025-03-05T19:52:48,5029206.787,-4079538.665,-2303444.301,-2614.089749,777.659647,-7109.825822,20.2765,[False],nan,nan,nan
2025-03-05T19:52:58,5002757.556,-4071511.685,-2374399.238,-2675.701360,827.719195,-7081.016350,20.3358,[False],nan,nan,nan
2025-03-05T19:53:08,4975693.873,-4062984.635,-2445061.730,-2736.979031,877.672770,-7051.337266,20.3988,[False],nan,nan,nan
2025-03-05T19:53:18,4948019.114,-4053958.604,-2515423.098,-2797.915244,927.514214,-7020.792404,20.4655,[False],nan,nan,nan
2025-03-05T19:53:28,4919736.731,-4044434.745,-2585474.705,-2858.502527,977.237382,-6989.385704,20.5359,[False],nan,nan,nan
2025-03-05T19:53:38,4890850.251,-4034414.271,-2655207.953,-2918.733458,1026.836152,-6957.121211,20.6100,[False],nan,nan,nan
2025-03-05T19:53:48,4861363.274,-4023898.457,-2724614.284,-2978.600661,1076.304416,-6924.003077,20.6877,[False],nan,nan,nan
2025-03-05T19:53:58,4831279.475,-4012888.638,-2793685.183,-3038.096809,1125.636089,-6890.035555,20.7690,[False],nan,nan,nan
2025-03-05T19:54:08,4800602.599,-4001386.210,-2862412.178,-3097.214628,1174.825106,-6855.223002,20.8538,[False],nan,nan,nan
2025-03-05T19:54:18,4769336.467,-3989392.631,-2930786.841,-3155.946889,1223.865422,-6819.569878,20.9422,[False],nan,nan,nan
2025-03-05T19:54:28,4737484.970,-3976909.418,-2998800.789,-3214.286416,1272.751015,-6783.080742,21.0340,[False],nan,nan,nan
2025-03-05T19:54:38,4705052.072,-3963938.147,-3066445.685,-3272.226080,1321.475882,-6745.760258,21.1292,[False],nan,nan,nan
2025-03-05T19:54:48,4672041.805,-3950480.456,-3133713.239,-3329.758805,1370.034044,-6707.613189,21.2278,[False],nan,nan,nan
2025-03-05T19:54:58,4638458.276,-3936538.041,-3200595.209,-3386.877566,1418.419541,-6668.644404,21.3297,[False],nan,nan,nan
2025-03-05T19:55:08,4604305.657,-3922112.660,-3267083.404,-3443.575394,1466.626438,-6628.858871,21.4349,[False],nan,nan,nan
2025-03-05T19:55:18,4569588.194,-3907206.128,-3333169.681,-3499.845374,1514.648824,-6588.261664,21.5433,[False],nan,nan,nan
2025-03-05T19:55:28,4534310.199,-3891820.318,-3398845.949,-3555.680652,1562.480816,-6546.857956,21.6549,[False],nan,nan,nan
2025-03-05T19:55:38,4498476.052,-3875957.166,-3464104.169,-3611.074434,1610.116556,-6504.653019,21.7696,[False],nan,nan,nan
2025-03-05T19:55:48,4462090.204,-3859618.661,-3528936.357,-3666.019984,1657.550218,-6461.652223,21.8875,[False],nan,nan,nan
2025-03-05T19:55:58,4425157.169,-3842806.854,-3593334.579,-3720.510629,1704.776002,-6417.861030,22.0083,[False],nan,nan,nan
2025-03-05T19:56:08,4387681.530,-3825523.853,-3657290.961,-3774.539758,1751.788140,-6373.284999,22.1322,[False],nan,nan,nan
2025-03-05T19:56:18,4349667.934,-3807771.823,-3720797.682,-3828.100818,1798.580896,-6327.929778,22.2590,[False],nan,nan,nan
2025-03-05T19:56:28,4311121.095,-3789552.985,-3783846.978,-3881.187316,1845.148559,-6281.801111,22.3887,[False],nan,nan,nan
2025-03-05T19:56:38,4272045.791,-3770869.621,-3846431.145,-3933.792823,1891.485453,-6234.904832,22.5212,[False],nan,nan,nan
2025-03-05T19:56:48,4232446.863,-3751724.064,-3908542.536,-3985.910969,1937.585931,-6187.246868,22.6565,[False],nan,nan,nan
2025-03-05T19:56:58,4192329.217,-3732118.709,-3970173.564,-4037.535449,1983.444378,-6138.833239,22.7945,[False],nan,nan,nan
2025-03-05T19:57:08,4151697.821,-3712056.002,-4031316.702,-4088.660024,2029.055213,-6089.670054,22.9352,[False],nan,nan,nan
2025-03-05T19:57:18,4110557.704,-3691538.448,-4091964.487,-4139.278517,2074.412886,-6039.763512,23.0786,[False],nan,nan,nan
2025-03-05T19:57:28,4068913.958,-3670568.607,-4152109.516,-4189.384821,2119.511884,-5989.119902,23.2246,[False],nan,nan,nan
2025-03-05T19:57:38,4026771.735,-3649149.091,-4211744.449,-4238.972895,2164.346730,-5937.745599,23.3731,[False],nan,nan,nan
2025-03-05T19:57:48,3984136.247,-3627282.571,-4270862.014,-4288.036764,2208.911980,-5885.647063,23.5240,[False],nan,nan,nan
2025-03-05T19:57:58,3941012.767,-3604971.768,-4329454.998,-4336.570521,2253.202228,-5832.830841,23.6775,[False],nan,nan,nan
2025-03-05T19:58:08,3897406.623,-3582219.461,-4387516.260,-4384.568330,2297.212105,-5779.303563,23.8333,[False],nan,nan,nan
2025-03-05T19:58:18,3853323.206,-3559028.479,-4445038.722,-4432.024421,2340.936281,-5725.071940,23.9914,[False],nan,nan,nan
2025-03-05T19:58:28,3808767.960,-3535401.705,-4502015.374,-4478.933094,2384.369460,-5670.142770,24.1519,[False],nan,nan,nan
2025-03-05T19:58:38,3763746.387,-3511342.077,-4558439.275,-4525.288718,2427.506389,-5614.522929,24.3146,[False],nan,nan,nan
2025-03-05T19:58:48,3718264.047,-3486852.582,-4614303.553,-4571.085734,2470.341853,-5558.219375,24.4795,[False],nan,nan,nan
2025-03-05T19:58:58,3672326.553,-3461936.262,-4669601.407,-4616.318654,2512.870676,-5501.239145,24.6466,[False],nan,nan,nan
2025-03-05T19:59:08,3625939.573,-3436596.208,-4724326.104,-4660.982059,2555.087723,-5443.589356,24.8158,[False],nan,nan,nan
2025-03-05T19:59:18,3579108.828,-3410835.564,-4778470.986,-4705.070606,2596.987902,-5385.277201,24.9871,[False],nan,nan,nan
2025-03-05T19:59:28,3531840.094,-3384657.523,-4832029.465,-4748.579023,2638.566158,-5326.309952,25.1604,[False],nan,nan,nan
2025-03-05T19:59:38,3484139.199,-3358065.330,-4884995.026,-4791.502111,2679.817483,-5266.694956,25.3356,[False],nan,nan,nan
2025-03-05T19:59:48,3436012.020,-3331062.280,-4937361.229,-4833.834747,2720.736907,-5206.439634,25.5128,[False],nan,nan,nan
2025-03-05T19:59:58,3387464.489,-3303651.715,-4989121.709,-4875.571880,2761.319506,-5145.551481,25.6919,[False],nan,nan,nan
2025-03-05T20:00:08,3338502.584,-3275837.029,-5040270.175,-4916.708536,2801.560399,-5084.038066,25.8729,[False],nan,nan,nan
2025-03-05T20:00:18,3289132.336,-3247621.662,-5090800.412,-4957.239816,2841.454748,-5021.907028,26.0557,[False],nan,nan,nan
2025-03-05T20:00:28,3239359.822,-3219009.105,-5140706.282,-4997.160896,2880.997760,-4959.166078,26.2402,[False],nan,nan,nan
2025-03-05T20:00:38,3189191.168,-3190002.894,-5189981.726,-5036.467028,2920.184687,-4895.822996,26.4265,[False],nan,nan,nan
2025-03-05T20:00:48,3138632.547,-3160606.614,-5238620.761,-5075.153542,2959.010827,-4831.885632,26.6145,[False],nan,nan,nan
2025-03-05T20:00:58,3087690.178,-3130823.896,-5286617.484,-5113.215847,2997.471521,-4767.361905,26.8041,[False],nan,nan,nan
2025-03-05T20:01:08,3036370.326,-3100658.417,-5333966.072,-5150.649428,3035.562160,-4702.259799,26.9953,[False],nan,nan,nan
2025-03-05T20:01:18,2984679.300,-3070113.901,-5380660.779,-5187.449854,3073.278181,-4636.587363,27.1882,[False],nan,nan,nan
2025-03-05T20:01:28,2932623.454,-3039194.117,-5426695.945,-5223.612767,3110.615067,-4570.352711,27.3825,[False],nan,nan,nan
2025-03-05T20:01:38,2880209.184,-3007902.878,-5472065.987,-5259.133894,3147.568349,-4503.564018,27.5784,[False],nan,nan,nan
2025-03-05T20:01:48,2827442.929,-2976244.043,-5516765.406,-5294.009039,3184.133607,-4436.229523,27.7758,[False],nan,nan,nan
2025-03-05T20:01:58,2774331.170,-2944221.514,-5560788.785,-5328.234084,3220.306469,-4368.357525,27.9746,[False],nan,nan,nan
2025-03-05T20:02:08,2720880.428,-2911839.236,-5604130.792,-5361.804993,3256.082612,-4299.956382,28.1747,[False],nan,nan,nan
2025-03-05T20:02:18,2667097.264,-2879101.199,-5646786.177,-5394.717808,3291.457764,-4231.034513,28.3763,[False],nan,nan,nan
2025-03-05T20:02:28,2612988.278,-2846011.432,-5688749.775,-5426.968654,3326.427701,-4161.600398,28.5792,[False],nan,nan,nan
2025-03-05T20:02:38,2558560.110,-2812574.009,-5730016.506,-5458.553734,3360.988250,-4091.662571,28.7834,[False],nan,nan,nan
2025-03-05T20:02:48,2503819.435,-2778793.045,-5770581.376,-5489.469335,3395.135291,-4021.229626,28.9889,[False],nan,nan,nan
2025-03-05T20:02:58,2448772.967,-2744672.695,-5810439.477,-5519.711826,3428.864754,-3950.310212,29.1957,[False],nan,nan,nan
2025-03-05T20:03:08,2393427.454,-2710217.155,-5849585.988,-5549.277659,3462.172622,-3878.913032,29.4036,[False],nan,nan,nan
2025-03-05T20:03:18,2337789.681,-2675430.661,-5888016.174,-5578.163370,3495.054931,-3807.046843,29.6128,[False],nan,nan,nan
2025-03-05T20:03:28,2281866.465,-2640317.488,-5925725.391,-5606.365577,3527.507769,-3734.720451,29.8231,[False],nan,nan,nan
2025-03-05T20:03:38,2225664.659,-2604881.951,-5962709.079,-5633.880982,3559.527278,-3661.942716,30.0345,[False],nan,nan,nan
2025-03-05T20:03:48,2169191.146,-2569128.400,-5998962.770,-5660.706371,3591.109655,-3588.722543,30.2470,[False],nan,nan,nan
2025-03-05T20:03:58,2112452.842,-2533061.227,-6034482.085,-5686.838613,3622.251149,-3515.068888,30.4606,[False],nan,nan,nan
2025-03-05T20:04:08,2055456.694,-2496684.859,-6069262.733,-5712.274662,3652.948065,-3440.990754,30.6752,[False],nan,nan,nan
2025-03-05T20:04:18,1998209.679,-2460003.760,-6103300.515,-5737.011553,3683.196763,-3366.497189,30.8909,[False],nan,nan,nan
2025-03-05T20:04:28,1940718.803,-2423022.430,-6136591.322,-5761.046408,3712.993656,-3291.597288,31.1075,[False],nan,nan,nan
2025-03-05T20:04:38,1882991.100,-2385745.404,-6169131.137,-5784.376433,3742.335216,-3216.300189,31.3251,[False],nan,nan,nan
2025-03-05T20:04:48,1825033.633,-2348177.255,-6200916.033,-5806.998920,3771.217970,-3140.615072,31.5437,[False],nan,nan,nan
2025-03-05T20:04:58,1766853.489,-2310322.586,-6231942.176,-5828.911245,3799.638500,-3064.551161,31.7631,[False],nan,nan,nan
2025-03-05T20:05:08,1708457.784,-2272186.037,-6262205.824,-5850.110870,3827.593450,-2988.117717,31.9835,[False],nan,nan,nan
2025-03-05T20:05:18,1649853.656,-2233772.280,-6291703.329,-5870.595342,3855.079515,-2911.324043,32.2047,[False],nan,nan,nan
2025-03-05T20:05:28,1591048.268,-2195086.020,-6320431.135,-5890.362294,3882.093453,-2834.179476,32.4268,[False],nan,nan,nan
2025-03-05T20:05:38,1532048.809,-2156131.995,-6348385.780,-5909.409444,3908.632075,-2756.693393,32.6497,[False],nan,nan,nan
2025-03-05T20:05:48,1472862.486,-2116914.973,-6375563.896,-5927.734597,3934.692252,-2678.875206,32.8734,[False],nan,nan,nan
2025-03-05T20:05:58,1413496.531,-2077439.755,-6401962.209,-5945.335642,3960.270913,-2600.734361,33.0978,[False],nan,nan,nan
2025-03-05T20:06:08,1353958.194,-2037711.170,-6427577.540,-5962.210556,3985.365043,-2522.280338,33.3231,[False],nan,nan,nan
2025-03-05T20:06:18,1294254.747,-1997734.079,-6452406.804,-5978.357404,4009.971687,-2443.522651,33.5490,[False],nan,nan,nan
2025-03-05T20:06:28,1234393.479,-1957513.371,-6476447.012,-5993.774337,4034.087948,-2364.470840,33.7757,[False],nan,nan,nan
2025-03-05T20:06:38,1174381.699,-1917053.964,-6499695.272,-6008.459590,4057.710987,-2285.134480,34.0031,[False],nan,nan,nan
2025-03-05T20:06:48,1114226.732,-1876360.805,-6522148.785,-6022.411489,4080.838025,-2205.523167,34.2311,[False],nan,nan,nan
2025-03-05T20:06:58,1053935.919,-1835438.866,-6543804.851,-6035.628442,4103.466340,-2125.646527,34.4598,[False],nan,nan,nan
2025-03-05T20:07:08,993516.618,-1794293.149,-6564660.863,-6048.108943,4125.593269,-2045.514210,34.6891,[False],nan,nan,nan
2025-03-05T20:07:18,932976.200,-1752928.681,-6584714.315,-6059.851569,4147.216208,-1965.135891,34.9191,[False],nan,nan,nan
2025-03-05T20:07:28,872322.050,-1711350.514,-6603962.794,-6070.854981,4168.332607,-1884.521271,35.1496,[False],nan,nan,nan
2025-03-05T20:07:38,811561.568,-1669563.725,-6622403.985,-6081.117925,4188.939979,-1803.680076,35.3807,[False],nan,nan,nan
2025-03-05T20:07:48,750702.164,-1627573.419,-6640035.672,-6090.639231,4209.035891,-1722.622055,35.6124,[False],nan,nan,nan
2025-03-05T20:07:58,689751.259,-1585384.720,-6656855.736,-6099.417812,4228.617970,-1641.356986,35.8446,[False],nan,nan,nan
2025-03-05T20:08:08,628716.287,-1543002.780,-6672862.155,-6107.452669,4247.683904,-1559.894670,36.0773,[False],nan,nan,nan
2025-03-05T20:08:18,567604.688,-1500432.770,-6688053.005,-6114.742891,4266.231438,-1478.244931,36.3106,[False],nan,nan,nan
2025-03-05T20:08:28,506423.914,-1457679.887,-6702426.461,-6121.287651,4284.258382,-1396.417618,36.5443,[False],nan,nan,nan
2025-03-05T20:08:38,445181.422,-1414749.345,-6715980.798,-6127.086213,4301.762605,-1314.422600,36.7785,[False],nan,nan,nan
2025-03-05T20:08:48,383884.679,-1371646.384,-6728714.387,-6132.137928,4318.742040,-1232.269764,37.0131,[False],nan,nan,nan
2025-03-05T20:08:58,322541.155,-1328376.260,-6740625.700,-6136.442237,4335.194682,-1149.969017,37.2482,[False],nan,nan,nan
2025-03-05T20:09:08,261158.327,-1284944.253,-6751713.308,-6139.998668,4351.118589,-1067.530281,37.4837,[False],nan,nan,nan
2025-03-05T20:09:18,199743.676,-1241355.657,-6761975.879,-6142.806838,4366.511882,-984.963492,37.7196,[False],nan,nan,nan
2025-03-05T20:09:28,138304.686,-1197615.790,-6771412.184,-6144.866450,4381.372746,-902.278599,37.9559,[False],nan,nan,nan
2025-03-05T20:09:38,76848.843,-1153729.983,-6780021.091,-6146.177297,4395.699428,-819.485564,38.1926,[False],nan,nan,nan
2025-03-05T20:09:48,15383.636,-1109703.587,-6787801.568,-6146.739261,4409.490234,-736.594356,38.4296,[False],nan,nan,nan
2025-03-05T20:09:58,-46083.446,-1065541.970,-6794752.684,-6146.552310,4422.743537,-653.614957,38.6669,[False],nan,nan,nan
2025-03-05T20:10:08,-107544.914,-1021250.514,-6800873.606,-6145.616503,4435.457768,-570.557355,38.9046,[False],nan,nan,nan
2025-03-05T20:10:18,-168993.280,-976834.617,-6806163.603,-6143.931988,4447.631421,-487.431545,39.1426,[False],nan,nan,nan
2025-03-05T20:10:28,-230421.059,-932299.692,-6810622.043,-6141.499001,4459.263052,-404.247526,39.3809,[False],nan,nan,nan
2025-03-05T20:10:38,-291820.766,-887651.167,-6814248.393,-6138.317865,4470.351280,-321.015300,39.6194,[False],nan,nan,nan
2025-03-05T20:10:48,-353184.924,-842894.482,-6817042.222,-6134.388992,4480.894787,-237.744873,39.8582,[False],nan,nan,nan
2025-03-05T20:10:58,-414506.055,-798035.091,-6819003.197,-6129.712877,4490.892317,-154.446249,40.0973,[False],nan,nan,nan
2025-03-05T20:11:08,-475776.692,-753078.460,-6820131.086,-6124.290100,4500.342682,-71.129436,40.3366,[False],nan,nan,nan
2025-03-05T20:11:18,-536989.371,-708030.065,-6820425.758,-6118.121325,4509.244752,12.195561,40.5761,[False],nan,nan,nan
2025-03-05T20:11:28,-598136.635,-662895.396,-6819887.181,-6111.207295,4517.597464,95.518737,40.8158,[False],nan,nan,nan
2025-03-05T20:11:38,-659211.035,-617679.950,-6818515.423,-6103.548837,4525.399817,178.830086,41.0557,[False],nan,nan,nan
2025-03-05T20:11:48,-720205.133,-572389.237,-6816310.652,-6095.146861,4532.650871,262.119601,41.2958,[False],nan,nan,nan
2025-03-05T20:11:58,-781111.497,-527028.774,-6813273.137,-6086.002357,4539.349746,345.377276,41.5361,[False],nan,nan,nan
2025-03-05T20:12:08,-841922.709,-481604.086,-6809403.246,-6076.116401,4545.495627,428.593102,41.7764,[False],nan,nan,nan
2025-03-05T20:12:18,-902631.358,-436120.707,-6804701.448,-6065.490153,4551.087757,511.757072,42.0170,[False],nan,nan,nan
2025-03-05T20:12:28,-963230.048,-390584.179,-6799168.311,-6054.124859,4556.125444,594.859174,42.2576,[False],nan,nan,nan
2025-03-05T20:12:38,-1023711.396,-345000.048,-6792804.504,-6042.021851,4560.608059,677.889399,42.4983,[False],nan,nan,nan
2025-03-05T20:12:48,-1084068.031,-299373.869,-6785610.796,-6029.182552,4564.535037,760.837737,42.7392,[False],nan,nan,nan
2025-03-05T20:12:58,-1144292.598,-253711.201,-6777588.056,-6015.608475,4567.905881,843.694179,42.9800,[False],nan,nan,nan
2025-03-05T20:13:08,-1204377.756,-208017.607,-6768737.252,-6001.301223,4570.720162,926.448726,43.2210,[False],nan,nan,nan
2025-03-05T20:13:18,-1264316.184,-162298.654,-6759059.454,-5986.262491,4572.977519,1009.091384,43.4620,[False],nan,nan,nan
2025-03-05T20:13:28,-1324100.574,-116559.914,-6748555.830,-5970.494065,4574.677661,1091.612174,43.7030,[False],nan,nan,nan
2025-03-05T20:13:38,-1383723.639,-70806.959,-6737227.650,-5953.997823,4575.820369,1174.001133,43.9441,[False],nan,nan,nan
2025-03-05T20:13:48,-1443178.111,-25045.365,-6725076.280,-5936.775727,4576.405490,1256.248318,44.1852,[False],nan,nan,nan
2025-03-05T20:13:58,-1502456.741,20719.292,-6712103.189,-5918.829827,4576.432942,1338.343809,44.4262,[False],nan,nan,nan
2025-03-05T20:14:08,-1561552.302,66481.435,-6698309.943,-5900.162258,4575.902707,1420.277709,44.6672,[False],nan,nan,nan
2025-03-05T20:14:18,-1620457.588,112235.487,-6683698.207,-5880.775234,4574.814833,1502.040144,44.9082,[False],nan,nan,nan
2025-03-05T20:14:28,-1679165.416,157975.873,-6668269.744,-5860.671054,4573.169434,1583.621265,45.1491,[False],nan,nan,nan
2025-03-05T20:14:38,-1737668.626,203697.018,-6652026.418,-5839.852096,4570.966682,1665.011246,45.3900,[False],nan,nan,nan
2025-03-05T20:14:48,-1795960.083,249393.349,-6634970.189,-5818.320818,4568.206814,1746.200281,45.6307,[False],nan,nan,nan
2025-03-05T20:14:58,-1854032.677,295059.298,-6617103.115,-5796.079761,4564.890127,1827.178590,45.8714,[False],nan,nan,nan
2025-03-05T20:15:08,-1911879.321,340689.297,-6598427.352,-5773.131546,4561.016980,1907.936414,46.1120,[False],nan,nan,nan
2025-03-05T20:15:18,-1969492.959,386277.784,-6578945.154,-5749.478875,4556.587793,1988.464014,46.3524,[False],nan,nan,nan
2025-03-05T20:15:28,-2026866.560,431819.201,-6558658.872,-5725.124530,4551.603050,2068.751674,46.5927,[False],nan,nan,nan
2025-03-05T20:15:38,-2083993.121,477307.995,-6537570.953,-5700.071375,4546.063296,2148.789698,46.8328,[False],nan,nan,nan
2025-03-05T20:15:48,-2140865.668,522738.619,-6515683.942,-5674.322357,4539.969141,2228.568411,47.0728,[False],nan,nan,nan
2025-03-05T20:15:58,-2197477.258,568105.532,-6493000.481,-5647.880504,4533.321262,2308.078160,47.3125,[False],nan,nan,nan
2025-03-05T20:16:08,-2253820.979,613403.201,-6469523.308,-5620.748930,4526.120402,2387.309313,47.5521,[False],nan,nan,nan
2025-03-05T20:16:18,-2309889.949,658626.100,-6445255.256,-5592.930835,4518.367373,2466.252266,47.7914,[False],nan,nan,nan
2025-03-05T20:16:28,-2365677.318,703768.711,-6420199.255,-5564.429507,4510.063056,2544.897444,48.0305,[False],nan,nan,nan
2025-03-05T20:16:38,-2421176.273,748825.526,-6394358.331,-5535.248317,4501.208401,2623.235305,48.2694,[False],nan,nan,nan
2025-03-05T20:16:48,-2476380.030,793791.048,-6367735.605,-5505.390723,4491.804425,2701.256343,48.5079,[False],nan,nan,nan
2025-03-05T20:16:58,-2531281.844,838659.787,-6340334.292,-5474.860264,4481.852213,2778.951092,48.7462,[False],nan,nan,nan
2025-03-05T20:17:08,-2585875.004,883426.268,-6312157.702,-5443.660562,4471.352916,2856.310124,48.9842,[False],nan,nan,nan
2025-03-05T20:17:18,-2640152.837,928085.026,-6283209.240,-5411.795316,4460.307750,2933.324055,49.2219,[False],nan,nan,nan
2025-03-05T20:17:28,-2694108.705,972630.608,-6253492.403,-5379.268306,4448.717998,3009.983540,49.4592,[False],nan,nan,nan
2025-03-05T20:17:38,-2747736.010,1017057.575,-6223010.782,-5346.083384,4436.585002,3086.279279,49.6962,[False],nan,nan,nan
2025-03-05T20:17:48,-2801028.193,1061360.502,-6191768.060,-5312.244484,4423.910173,3162.202012,49.9328,[False],nan,nan,nan
2025-03-05T20:17:58,-2853978.733,1105533.977,-6159768.015,-5277.755612,4410.694980,3237.742524,50.1691,[False],nan,nan,nan
2025-03-05T20:18:08,-2906581.152,1149572.605,-6127014.515,-5242.620850,4396.940959,3312.891643,50.4049,[False],nan,nan,nan
2025-03-05T20:18:18,-2958829.011,1193471.006,-6093511.518,-5206.844354,4382.649704,3387.640242,50.6403,[False],nan,nan,nan
2025-03-05T20:18:28,-3010715.914,1237223.814,-6059263.075,-5170.430358,4367.822872,3461.979234,50.8752,[False],nan,nan,nan
2025-03-05T20:18:38,-3062235.507,1280825.684,-6024273.328,-5133.383167,4352.462184,3535.899578,51.1097,[False],nan,nan,nan
2025-03-05T20:18:48,-3113381.481,1324271.284,-5988546.509,-5095.707164,4336.569419,3609.392276,51.3437,[False],nan,nan,nan
2025-03-05T20:18:58,-3164147.569,1367555.305,-5952086.938,-5057.406808,4320.146423,3682.448375,51.5773,[False],nan,nan,nan
2025-03-05T20:19:08,-3214527.551,1410672.452,-5914899.027,-5018.486635,4303.195103,3755.058968,51.8103,[False],nan,nan,nan
2025-03-05T20:19:18,-3264515.251,1453617.452,-5876987.273,-4978.951254,4285.717428,3827.215196,52.0427,[False],nan,nan,nan
2025-03-05T20:19:28,-3314104.541,1496385.053,-5838356.267,-4938.805352,4267.715435,3898.908249,52.2746,[False],nan,nan,nan
2025-03-05T20:19:38,-3363289.339,1538970.020,-5799010.682,-4898.053689,4249.191218,3970.129368,52.5059,[False],nan,nan,nan
2025-03-05T20:19:48,-3412063.612,1581367.143,-5758955.281,-4856.701096,4230.146937,4040.869845,52.7366,[False],nan,nan,nan
2025-03-05T20:19:58,-3460421.374,1623571.233,-5718194.916,-4814.752480,4210.584814,4111.121023,52.9667,[False],nan,nan,nan
2025-03-05T20:20:08,-3508356.691,1665577.121,-5676734.521,-4772.212820,4190.507131,4180.874297,53.1961,[False],nan,nan,nan
2025-03-05T20:20:18,-3555863.678,1707379.665,-5634579.118,-4729.087167,4169.916234,4250.121114,53.4249,[False],nan,nan,nan
2025-03-05T20:20:28,-3602936.499,1748973.743,-5591733.815,-4685.380649,4148.814531,4318.852971,53.6530,[False],nan,nan,nan
2025-03-05T20:20:38,-3649569.372,1790354.261,-5548203.803,-4641.098467,4127.204494,4387.061424,53.8803,[False],nan,nan,nan
2025-03-05T20:20:48,-3695756.567,1831516.147,-5503994.359,-4596.245895,4105.088660,4454.738084,54.1069,[False],nan,nan,nan
2025-03-05T20:20:58,-3741492.406,1872454.357,-5459110.842,-4550.828287,4082.469629,4521.874622,54.3328,[False],nan,nan,nan
2025-03-05T20:21:08,-3786771.267,1913163.871,-5413558.695,-4504.851064,4059.350063,4588.462770,54.5578,[False],nan,nan,nan
2025-03-05T20:21:18,-3831587.580,1953639.699,-5367343.442,-4458.319725,4035.732690,4654.494329,54.7821,[False],nan,nan,nan
2025-03-05T20:21:28,-3875935.833,1993876.875,-5320470.690,-4411.239834,4011.620299,4719.961161,55.0055,[False],nan,nan,nan
2025-03-05T20:21:38,-3919810.567,2033870.464,-5272946.128,-4363.617027,3987.015739,4784.855200,55.2281,[False],nan,nan,nan
2025-03-05T20:21:48,-3963206.383,2073615.559,-5224775.522,-4315.457005,3961.921920,4849.168447,55.4497,[False],nan,nan,nan
2025-03-05T20:21:58,-4006117.936,2113107.281,-5175964.721,-4266.765531,3936.341813,4912.892972,55.6704,[False],nan,nan,nan
2025-03-05T20:22:08,-4048539.941,2152340.784,-5126519.652,-4217.548435,3910.278447,4976.020913,55.8902,[False],nan,nan,nan
